,City,Country,Temperature (F),Latitude,Longitude,Humidity (%),Cloudiness (%),Wind Speed (mph)
0,Tiksi,RU,9.08,71.64,128.87,70,0,4.21
1,Saint-Philippe,CA,23.13,45.36,-73.48,49,1,10.29
2,Hermanus,ZA,71.76,-34.42,19.24,76,0,2.64
3,Albany,US,23,42.65,-73.75,45,1,3.36
4,Faanui,PF,84.41,-16.48,-151.75,100,8,4.76
5,Carnarvon,ZA,53.36,-30.97,22.13,60,24,2.98
6,Hithadhoo,MV,82.25,-0.6,73.08,100,44,1.63
7,Bluff,AU,87.2,-23.58,149.07,44,92,11.81
8,Anadyr,RU,28.2,64.73,177.51,86,20,29.08
9,Vaini,IN,87.8,15.34,74.49,45,0,2.24
10,Atbasar,KZ,37.61,51.81,68.36,100,0,5.1
11,Cape Town,ZA,60.98,-33.93,18.42,82,0,5.82
12,Ushuaia,AR,50,-54.81,-68.31,76,75,9.17
13,Petropavlovsk-Kamchatskiy,RU,32,53.05,158.65,71,0,6.71
14,Georgetown,GY,71.6,6.8,-58.16,94,0,4.7
15,Port-Gentil,GA,78.8,-0.72,8.78,100,40,2.24
16,Pevek,RU,25.91,69.7,170.27,75,92,2.86
17,Sabang,PH,81.98,13.72,123.58,79,88,13.27
18,Mataura,NZ,53.01,-46.19,168.86,82,88,13
19,Geraldton,CA,28.4,49.72,-86.95,58,75,10.29
20,Hobart,AU,65.44,-42.88,147.33,37,0,14.99
21,Port Alfred,ZA,67.22,-33.59,26.89,89,12,14.5
22,Rikitea,PF,80.18,-23.12,-134.97,96,88,14.38
23,Butaritari,KI,83.69,3.07,172.79,100,88,17.52
24,Jamestown,AU,67.76,-33.21,138.6,73,8,4.43
25,Nanortalik,GL,23.48,60.14,-45.24,100,64,14.83
26,Kaitangata,NZ,53.01,-46.28,169.85,69,32,15.99
27,Hambantota,LK,95,6.12,81.12,44,20,4.7
28,New Norfolk,AU,65.44,-42.78,147.06,37,0,14.99
29,Punta Arenas,CL,51.39,-53.16,-70.91,57,40,12.75
30,Qaanaaq,GL,-10.91,77.48,-69.36,87,48,10.69
32,Alofi,NU,77,-19.06,-169.92,94,92,10.29
33,Kapaa,US,68.43,22.08,-159.32,88,90,3.36
34,Leh,IN,2.51,34.16,77.58,86,0,1.74
35,Sangar,RU,13.31,63.92,127.47,57,0,4.09
36,Kirillov,RU,28.4,59.86,38.38,86,75,6.71
37,Babylon,US,34.11,40.7,-73.33,31,1,10.29
38,East London,ZA,68,-33.02,27.91,68,0,5.82
39,Castro,CL,44.6,-42.48,-73.76,87,0,5.82
40,Matara,PE,44,-13.74,-72.9,99,88,1.63
41,Cabo San Lucas,MX,65.43,22.89,-109.91,48,75,4.7
42,Cairns,AU,84.27,-16.92,145.77,79,64,10.29
43,Portobelo,PA,77.9,9.55,-79.65,74,20,6.93
44,Novikovo,UA,42.74,45.05,34.56,100,76,4.32
45,Synya,RU,31.13,65.37,58.04,89,88,8.68
46,Mogadishu,SO,86,2.04,45.34,74,75,12.75
47,Bredasdorp,ZA,66.99,-34.53,20.04,88,20,1.12
48,Upernavik,GL,3.32,72.79,-56.15,100,44,6.44
49,Pangai,TO,77,-19.8,-174.35,94,90,13.87
50,Ancud,CL,44.6,-41.87,-73.83,87,0,5.82
51,Torbay,CA,23.5,47.66,-52.73,73,90,5.82
52,Imbituba,BR,71.6,-28.24,-48.67,68,75,5.82
53,Muros,ES,49.68,42.77,-9.06,70,0,4.7
54,Richards Bay,ZA,69.38,-28.77,32.06,94,68,1.97
56,Binga,ZW,81.44,-17.62,27.34,67,0,11.81
57,Lorengau,PG,82.16,-2.02,147.27,100,20,8.79
58,Hilo,US,66.52,19.71,-155.08,68,90,6.93
59,Hudson Bay,CA,33.65,52.86,-102.4,86,92,4.21
60,Mbala,ZM,67.67,-8.85,31.37,93,56,3.98
61,Chivay,PE,35.54,-15.64,-71.6,98,92,2.86
62,Chokurdakh,RU,0.26,70.62,147.9,74,8,17.96
64,Puerto Ayora,EC,76.58,-0.74,-90.35,100,0,5.55
65,Provideniya,RU,32.03,64.42,-173.23,91,88,31.83
66,Atuona,PF,82.61,-9.8,-139.03,99,20,14.16
67,Aripuana,BR,74.6,-9.17,-60.63,96,36,1.97
68,Busselton,AU,80.64,-33.64,115.35,21,0,16.51
69,Bud,NO,38.57,62.91,6.91,93,75,9.17
70,Esperance,TT,74.39,10.24,-61.45,94,20,4.65
71,Surt,LY,59.93,31.21,16.59,80,32,8.46
72,Manaure,CO,77.57,11.78,-72.45,95,20,18.07
73,Yellowknife,CA,21.63,62.45,-114.38,73,90,12.75
74,Arraial do Cabo,BR,75.68,-22.97,-42.02,99,8,2.98
75,Kruisfontein,ZA,61.28,-34,24.73,82,48,11.59
76,Grindavik,IS,41.45,63.84,-22.43,86,75,28.86
77,Avarua,CK,80.6,-21.21,-159.78,88,32,3.36
78,Yueyang,CN,66.23,29.36,113.12,98,92,2.42
80,Mount Gambier,AU,66.2,-37.83,140.78,59,20,3.36
81,Weston,US,32.13,41.2,-73.38,42,1,6.22
82,Fairbanks,US,38.8,64.84,-147.72,93,90,7.34
83,Coihaique,CL,35.38,-45.58,-72.07,93,0,1.86
84,Coahuayana,MX,57.86,18.62,-100.35,35,0,3.87
85,Jalu,LY,55.7,29.03,21.55,42,0,4.21
86,Cochabamba,BO,59,-17.39,-66.16,87,75,3.36
87,Tilichiki,RU,17.54,60.47,166.1,79,68,9.46
88,Mar del Plata,AR,55.07,-46.43,-67.52,60,0,8.68
89,Tura,IN,76.76,25.52,90.21,73,0,2.75
90,Norman Wells,CA,35.6,65.28,-126.83,59,20,5.82
91,Gizo,IL,61.83,31.8,34.94,72,40,11.41
92,Dakar,SN,65.21,14.69,-17.45,88,0,9.17
93,Taltal,CL,53.27,-25.41,-70.49,90,0,2.42
94,Rayong,TH,93.06,12.68,101.28,66,20,11.41
95,Bahile,PH,87.8,10,118.79,70,75,11.41
97,Manta,RO,34.19,45.1,24.1,79,8,2.75
98,Victoria,BN,89.83,5.28,115.24,70,75,6.93
99,Henties Bay,NA,61,-22.12,14.28,93,48,1.01
100,Nouadhibou,MR,62.6,20.93,-17.03,93,24,2.24
101,Clyde River,CA,-11.21,70.47,-68.59,69,40,3.36
102,Broken Hill,AU,73.4,-31.97,141.45,23,0,9.17
103,Tiznit,MA,58.31,29.7,-9.73,98,92,3.2
104,Souillac,FR,38.43,45.6,-0.6,78,0,9.17
106,Caravelas,BR,81.8,-17.73,-39.27,100,56,12.48
107,Severo-Kurilsk,RU,29.96,50.68,156.12,95,88,14.05
108,Kloulklubed,PW,84.2,7.04,134.26,74,75,13.87
110,Kodiak,US,47.75,39.95,-94.76,49,1,12.75
111,Verkhoyansk,RU,8.27,67.55,133.39,63,0,3.76
112,Sitka,US,52,37.17,-99.65,78,8,15.01
113,Lompoc,US,52.74,34.64,-120.46,87,75,3.36
114,Port Elizabeth,US,32.9,39.31,-74.98,50,1,4.7
115,Agadir,MA,59,30.42,-9.58,82,40,2.24
116,Barrow,AR,45.08,-38.31,-60.23,91,0,6.11
117,Aykhal,RU,25.01,65.95,111.51,87,80,8.01
118,Zavodouspenskoye,RU,37.4,56.86,65.02,59,0,8.95
119,Gamba,CN,17.36,28.28,88.52,86,12,9.8
120,Mahebourg,MU,86.58,-20.41,57.7,74,40,8.05
121,Dunedin,NZ,57.99,-45.87,170.5,55,0,7
122,Griffith,AU,78.8,-34.29,146.06,19,0,6.93
123,Selenduma,RU,34.1,50.92,106.24,36,0,4.09
125,Shache,CN,62.9,38.42,77.24,32,0,4.99
126,Luau,CD,68.03,-10.7,22.23,93,24,3.2
127,College,US,39.07,64.86,-147.8,93,90,3.36
128,Khushab,PK,80.54,32.29,72.35,51,8,3.98
129,Burnie,AU,65.01,-41.05,145.91,66,48,4
130,Bandar-e Lengeh,IR,71.6,26.56,54.88,88,40,11.41
131,Krasnyy Yar,RU,33.74,50.7,44.73,94,92,11.25
132,Beyneu,KZ,42.2,45.32,55.19,76,92,11.25
134,Bambous Virieux,MU,86.54,-20.34,57.76,74,40,8.05
135,Chicama,PE,68,-7.84,-79.15,88,75,6.93
136,Izhma,RU,31.67,65.01,53.91,76,80,4.54
137,Ngunguru,NZ,66.99,-35.62,174.5,83,88,16.28
138,Anito,PH,78.38,12.45,125.29,100,92,15.5
139,Khatanga,RU,30.95,71.98,102.47,94,92,12.71
140,San Quintin,PH,88.28,17.54,120.52,39,0,8.12
141,Mitsamiouli,KM,87.8,-11.38,43.28,62,20,4.7
142,Broome,GB,42.49,52.47,1.45,86,75,4.7
143,Bathsheba,BB,77.84,13.22,-59.52,100,56,17.18
144,Chuy,UY,64.34,-33.69,-53.46,89,48,11.7
145,Oranjemund,ZA,60.02,-28.55,16.43,94,0,3.2
147,Lasa,CY,58.66,34.92,32.53,77,40,4.7
148,Tabuk,PH,85.94,17.41,121.44,40,20,2.98
149,Ponta do Sol,BR,68.03,-20.63,-46,81,88,3.42
150,San Andres,PH,82.88,13.32,122.68,94,80,13.71
152,Bosanski Brod,BA,35.6,45.14,17.99,93,0,4.7
153,Preobrazheniye,RU,33.47,42.9,133.91,38,64,5.44
154,Berlevag,NO,22.55,70.86,29.09,79,0,16.11
155,Wanning,AT,36.91,48.64,13.53,93,75,9.17
157,Kavieng,PG,85.58,-2.57,150.8,98,44,8.46
158,Yumen,CN,48.05,40.29,97.04,52,12,21.32
160,Buala,SB,84.23,-8.15,159.59,86,32,8.23
161,Miles City,US,44.11,46.41,-105.84,70,20,8.05
163,Show Low,US,48.24,34.25,-110.03,37,1,11.41
164,Zyryanskoye,RU,31.31,56.83,86.62,92,0,6.22
165,Beniganj,IN,85.94,27.28,80.45,46,0,6.22
166,Goulburn,AU,67.42,-34.75,149.72,49,0,6.11
167,Wuan,CN,68.66,31.68,112,65,48,4.43
168,Ixtapa,MX,70.86,20.71,-105.21,100,75,3.36
169,Damaturu,NG,69.11,11.75,11.96,30,0,8.9
170,Maua,KE,70.28,0.23,37.94,75,32,2.42
171,Yerbogachen,RU,28.88,61.28,108.01,67,64,4.76
172,Freeport,BS,68.03,26.54,-78.7,100,76,6.11
173,Shubarshi,KZ,39.14,48.59,57.19,75,44,12.37
174,Ola,RU,21.5,59.58,151.3,100,76,11.48
175,Gboko,NG,74.06,7.32,9,85,8,2.64
177,Udachnyy,RU,25.82,66.42,112.4,78,88,4.54
178,Thompson,CA,35.6,55.74,-97.86,74,90,3.36
179,Natal,BR,76.08,-5.81,-35.21,88,40,4.7
180,Pisco,PE,68,-13.71,-76.2,82,20,1.74
181,Itoman,JP,73.26,26.12,127.67,53,40,12.75
182,Nicolas Bravo,MX,53.36,24.39,-104.74,50,64,0.96
184,Dingle,PH,82.79,11,122.67,73,92,12.71
185,Abalak,NE,70.28,15.46,6.28,26,0,11.7
186,Manavalakurichi,IN,91.4,8.13,77.3,59,20,9.17
187,Ribeira Grande,PT,59.12,38.52,-28.7,100,0,10.47
188,Vallenar,CL,53.9,-28.58,-70.76,72,0,1.74
189,Termez,AF,75.45,37.23,67.28,33,75,11.41
190,Ahuimanu,US,71.53,21.44,-157.84,69,20,8.9
191,Margate,AU,65.44,-43.03,147.26,37,0,14.99
192,Road Town,VG,77.22,18.42,-64.62,78,20,10.29
194,Ligayan,PH,83.24,4.65,119.47,100,12,5.77
195,Fortuna,ES,46.13,38.18,-1.13,93,0,2.24
196,Komsomolskiy,RU,27.44,67.55,63.78,95,88,19.86
197,Ergani,TR,45.36,38.27,39.76,100,75,6.93
198,Annau,TM,51.8,37.89,58.52,87,90,2.24
199,Longyearbyen,NO,21.2,78.22,15.63,67,40,14.99
200,Port Hardy,CA,37.4,50.7,-127.42,93,40,3.36
201,Honiara,SB,81.62,-9.43,159.96,84,32,2.86
202,Ararangua,BR,68.39,-28.93,-49.49,100,80,9.35
203,Boyany,UA,34.29,48.27,26.13,59,75,23.04
204,Haapiti,PF,82.17,-17.57,-149.87,78,75,2.24
205,Hanting,CN,64.88,30.92,118.55,96,68,5.1
206,Bulgan,MN,31.4,48.81,103.53,26,0,4.09
207,Kholmogory,RU,24.8,64.23,41.65,92,0,4.21
208,Brisbane,AU,68.7,-27.47,153.02,94,75,8.05
209,Lodja,CD,71.99,-3.52,23.6,94,0,3.2
210,Agadez,NE,71.6,16.97,7.99,28,0,13.87
211,Port Lincoln,AU,67.58,-34.72,135.86,81,68,4.65
212,Rockland,US,29.17,42.13,-70.92,85,1,6.93
214,Cherskiy,RU,9.62,68.75,161.3,74,88,13.15
215,Comodoro Rivadavia,AR,68,-45.87,-67.48,37,0,12.75
216,Tiarei,PF,82.17,-17.53,-149.33,78,75,2.24
218,Caraguatay,PY,68,-25.24,-56.83,64,75,6.93
219,Linhai,CN,73.09,28.86,121.14,68,48,4
220,Lashio,MM,87.47,22.93,97.75,36,0,3.76
221,Mana,RS,37.24,43.52,20.24,56,0,1.12
222,Arroyo,US,22.48,41.39,-78.88,53,1,3.36
223,Iqaluit,CA,-11.12,63.75,-68.52,69,20,2.24
224,Airai,TL,77.03,-8.93,125.41,87,80,2.3
225,Marawi,PH,80.01,8,124.29,84,80,5.01
226,Wuxue,CN,61.28,29.85,115.56,100,92,3.53
227,Chenghai,CN,75.2,23.46,116.77,69,75,2.24
228,Bethel,US,32,60.79,-161.76,88,1,9.17
229,Terra Santa,BR,79.28,-2.1,-56.49,85,8,4.65
230,Laiyang,CN,68.84,36.98,120.7,22,12,13.04
232,Talnakh,RU,27.44,69.49,88.39,91,88,22.55
233,Zyryanka,RU,11.51,65.73,150.89,63,76,12.15
234,Hukuntsi,BW,75.86,-23.98,21.76,20,36,5.32
235,Piopio,CL,41.14,-42.79,-73.57,100,0,1.12
236,Amga,RU,14.93,60.89,131.98,52,20,5.44
237,Saint-Augustin,FR,39.34,44.83,-0.61,74,0,3.36
239,Fengcheng,CN,58.31,40.45,124.07,43,0,8.12
240,Waipawa,NZ,63,-39.94,176.59,71,88,8.01
243,Boyolangu,ID,81.62,-8.09,111.9,95,32,4.43
244,Egvekinot,RU,26.27,66.32,-179.17,87,76,13.71
245,Hirara,JP,76.12,24.8,125.28,60,20,11.41
246,Charters Towers,AU,80.9,-20.07,146.27,78,80,11.36
247,Piacabucu,BR,78.2,-10.41,-36.43,90,76,5.44
248,Saint-Francois,FR,29.32,46.42,3.91,92,0,2.24
249,Kununurra,AU,100.4,-15.77,128.74,35,40,10.29
250,Shakiso,ET,65.51,5.77,38.9,85,88,3.2
251,Estevan,CA,39.83,49.14,-102.99,100,1,10.29
252,Rome,IT,49.86,41.89,12.48,53,20,3.36
253,San Juan de Uraba,CO,80.54,8.76,-76.53,99,48,18.86
254,Darhan,MN,32.03,49.49,105.92,31,0,5.44
255,Marin,RO,40.05,47.13,22.81,55,0,16.11
258,Saint Anthony,US,35.15,43.97,-111.68,48,1,5.82
259,Santiago,CL,61.68,-33.44,-70.65,76,0,3.36
260,San Carlos de Bariloche,AR,44.6,-41.13,-71.31,45,0,8.05
261,Grand Gaube,MU,86.45,-20.01,57.66,74,40,8.05
262,Tasiilaq,GL,23,65.61,-37.64,67,48,8.05
263,Marsh Harbour,BS,74.42,26.54,-77.06,100,48,6.22
264,Tuktoyaktuk,CA,19.16,69.44,-133.03,96,64,18.52
265,Inirida,CO,74.51,3.87,-67.92,91,48,1.97
267,Kikwit,CD,73.34,-5.04,18.82,86,12,3.65
268,Saldanha,PT,39.95,41.42,-6.55,49,0,11.7
269,Narsaq,GL,15.8,60.91,-46.05,43,32,3.36
272,Kamyshlov,RU,30.86,56.85,62.71,96,56,10.8
273,Portland,US,44.04,45.52,-122.67,61,1,3.76
274,Madison Heights,US,29.01,42.49,-83.11,63,1,3.36
276,Bilma,NE,59.57,18.69,12.92,19,0,7.67
277,Kushima,JP,70.02,31.5,131.29,15,40,17.22
278,Kayseri,TR,44.83,38.73,35.48,56,75,4.21
280,Napier,NZ,72,-39.49,176.92,61,24,5.01
281,Itapaci,BR,70.46,-14.95,-49.55,94,76,7.78
282,Maragogi,BR,76.31,-9.01,-35.22,100,92,2.75
283,Sinnamary,GF,80.18,5.38,-52.96,92,92,12.03
284,Biak,ID,81.08,-0.91,122.88,100,24,2.42
285,Dondo,MZ,80.6,-19.62,34.74,83,40,14.99
286,Okha,RU,19.52,53.59,142.95,92,24,16.84
287,Mehamn,NO,24.84,71.03,27.85,62,0,17.22
288,Chapais,CA,8.6,49.78,-74.86,55,90,5.82
289,Santa Rosa,AR,48.14,-36.62,-64.29,87,0,9.57
290,Saskylakh,RU,23.93,71.97,114.09,88,88,8.01
291,Kalga,RU,26.54,50.92,118.9,30,0,10.58
293,Kiama,AU,69.46,-34.67,150.86,56,40,10.29
294,West Bay,GB,35.64,50.71,-2.76,87,0,2.24
295,Katsuura,JP,66.36,33.93,134.5,59,75,11.41
296,Kerema,PG,79.19,-7.96,145.78,91,64,1.74
297,Sorland,NO,38.39,67.67,12.69,96,75,38.03
298,Winneba,GH,78.8,5.35,-0.62,88,0,6.93
299,Okhotsk,RU,29.96,59.36,143.24,74,68,3.87
300,Samarai,PG,83.87,-10.62,150.67,98,12,12.93
301,Muli,IN,100.16,22.62,71.45,14,0,5.66
303,Peleduy,RU,24.38,59.63,112.75,70,76,3.87
304,Rio Gallegos,AR,44.6,-51.62,-69.22,87,0,5.82
305,Aborlan,PH,87.8,9.44,118.55,70,75,11.41
306,Norfolk,US,35.33,36.85,-76.29,92,1,15.28
307,Robinson,US,32.34,39.01,-87.74,100,1,3.09
308,Krasnovishersk,RU,30.41,60.4,57.08,96,20,10.69
310,Faya,SA,67.19,18.39,42.45,77,20,11.41
311,Ayan,TR,39.41,40.67,33.6,46,12,3.65
312,Burns Lake,CA,32.3,54.23,-125.76,77,88,1.52
313,Pacific Grove,US,55.24,36.62,-121.92,93,1,2.19
317,Barra do Garcas,BR,72.26,-15.89,-52.26,96,76,3.53
318,Itarema,BR,73.07,-2.92,-39.92,97,48,3.65
319,Dasoguz,TM,47.43,41.84,59.97,100,90,9.17
320,Camacha,PT,61.83,33.08,-16.33,72,40,17.22
321,High Point,US,36.91,35.96,-80.01,38,1,3.36
322,Banjar,ID,83.78,-7.37,108.54,77,76,3.65
323,Cidreira,BR,64.16,-30.17,-50.22,90,36,5.66
324,Entre Rios,BR,79.91,-11.94,-38.08,91,88,5.44
325,Ilulissat,GL,1.4,69.22,-51.1,77,68,5.82
326,Lypova Dolyna,UA,36.71,50.56,33.8,90,68,4.54
327,San Lazaro,BZ,75.2,18.04,-88.66,88,40,4.65
328,Scarborough,GB,46.36,54.28,-0.41,81,0,6.93
329,Billings,US,45.07,45.79,-108.5,52,40,9.17
330,Tual,ID,83.96,-5.67,132.75,100,12,12.03
331,Nehe,CN,36.62,48.48,124.88,37,8,11.81
332,Marquette,US,30.96,46.54,-87.4,79,1,11.41
333,Vilyuysk,RU,17.54,63.75,121.63,53,0,6.67
334,Naze,NG,75.14,5.43,7.07,92,56,3.98
335,North Bend,US,43.52,43.41,-124.22,93,1,5.82
336,Tullow,IE,38.8,52.8,-6.74,81,75,6.93
337,Jaciara,BR,77.66,-15.95,-54.98,72,76,7.23
338,Weilmunster,DE,36.34,50.43,8.37,85,20,2.75
339,Hasaki,JP,65.28,35.73,140.83,34,20,13.87
341,Tuatapere,NZ,53.01,-46.13,167.69,82,68,13
342,Suining,CN,65.87,30.51,105.57,79,68,1.97
343,Benghazi,LY,62.36,32.12,20.07,95,0,7.45
344,Kiunga,PG,81.44,-6.12,141.3,87,44,3.09
345,Tromso,NO,30.24,69.65,18.96,100,90,23.04
346,Dikson,RU,31.49,73.51,80.55,98,80,34.96
348,Manono,CD,75.05,-7.3,27.4,87,12,3.76
350,Busca,IT,40.19,44.52,7.47,79,0,5.82
351,Sungaipenuh,ID,70.46,-2.08,101.38,97,88,1.97
352,Mandalgovi,MN,29.78,45.76,106.27,79,0,7.56
353,Nizhniy Tsasuchey,RU,31.04,50.52,115.13,28,0,17.29
354,Meulaboh,ID,81.89,4.14,96.13,100,76,1.41
355,Vostok,RU,23.48,46.45,135.83,56,76,6.11
357,Los Llanos de Aridane,ES,60.8,28.66,-17.92,72,0,3.36
358,Yar-Sale,RU,33.83,66.83,70.83,95,80,19.75
359,Cuyamel,HN,73.36,15.66,-88.19,83,20,5.82
360,Fare,PF,83.6,-16.7,-151.02,100,24,3.87
361,Lata,IN,58.85,30.78,78.62,70,0,1.74
362,La Asuncion,EC,44.54,-1.64,-78.74,100,56,0.18
363,Chiredzi,ZW,72.44,-21.05,31.67,90,76,10.36
364,Hami,CN,57.05,42.84,93.51,59,0,6.89
365,Tessalit,ML,76.94,20.2,1.01,29,92,9.24
366,Vestmannaeyjar,IS,42.8,63.44,-20.27,87,40,27.51
367,Ostrovnoy,RU,18.17,68.05,39.51,82,0,13.71
368,Lebu,ET,66.23,8.96,38.73,55,0,5.44
369,Cayenne,GF,78.8,4.94,-52.33,74,20,3.36
370,Yuzhno-Sukhokumsk,RU,44.9,44.66,45.65,70,0,5.66
371,Kalmunai,LK,89.18,7.42,81.82,64,0,5.32
372,Aygehovit,AZ,39.41,39.36,46.68,88,0,2.3
373,San Jose,PH,82.16,15.79,120.99,66,20,6.78
374,Silifke,TR,51.38,36.38,33.93,78,48,1.63
375,Kharitonovo,RU,32.93,61.4,47.5,92,48,7.23
376,Pangnirtung,CA,-8.39,66.15,-65.72,62,24,2.3
377,Vila do Maio,CV,68,15.13,-23.22,77,75,5.82
378,Concarneau,FR,37.22,47.88,-3.92,93,0,5.82
379,Salamiyah,SY,45.08,35.01,37.05,95,92,4.54
380,Durango,US,48.38,37.28,-107.88,34,90,4.7
381,Novo Aripuana,BR,76.76,-5.12,-60.38,91,48,1.97
382,Rexburg,US,35.08,43.82,-111.79,48,1,5.82
383,Hualmay,PE,63.35,-11.1,-77.61,94,24,3.76
384,Oslo,NO,33.46,59.91,10.74,92,0,2.24
385,Razdolnoye,RU,44.6,43.7,44.53,65,20,4.47
386,La Palma,CO,66.68,5.36,-74.39,99,36,2.19
387,Kaduna,NG,68.66,10.52,7.44,28,8,12.15
389,Aras,YE,68.48,14.28,44.38,46,0,2.75
390,Sabha,LY,54.53,27.03,14.43,54,8,4.09
391,Middlebury,US,17.51,44.01,-73.17,67,1,2.42
392,Ahipara,NZ,69.92,-35.17,173.16,79,92,14.61
393,Huilong,CN,65.42,28.89,110.18,89,76,3.31
395,Beloha,MG,80.9,-25.17,45.06,73,64,5.1
396,Skeldon,GY,79.46,5.88,-57.13,97,92,12.71
397,Ambilobe,MG,79.64,-13.19,49.05,97,92,4.09
398,Peniche,PT,55.65,39.36,-9.38,81,0,4.7
399,Morros,BR,77,-2.87,-44.04,94,20,2.24
400,Nchelenge,ZM,69.56,-9.35,28.74,95,68,3.2
401,Blackwater,GB,41.52,51.33,-0.78,86,12,3.36
403,Pirajui,BR,70.3,-22,-49.46,94,0,8.05
404,Homa Bay,KE,73.4,-0.53,34.45,78,75,4.7
405,Wagar,US,47.39,31.44,-87.99,82,0,6.89
406,Tastur,TN,50.86,36.55,9.44,66,40,11.41
407,Rothes,GB,50.11,57.53,-3.21,76,20,17.22
408,Port Blair,IN,84.2,11.67,92.75,79,75,5.82
409,Davidson,US,39.38,35.5,-80.85,60,1,4.7
410,Gryazi,RU,32.03,52.5,39.96,96,32,6.44
411,Setermoen,NO,30.85,68.86,18.35,86,75,10.29
412,The Valley,AI,77,18.22,-63.06,78,20,9.17
413,Dzhebariki-Khaya,RU,12.59,62.22,135.8,53,12,3.65
414,Dhidhdhoo,MV,84.95,6.88,73.1,100,0,4.65
415,Nuuk,GL,1.7,64.17,-51.74,100,8,3.65
416,Ushtobe,KZ,65.24,45.25,77.98,46,76,4.32
417,Tautira,PF,82.18,-17.73,-149.15,78,75,2.24
418,Luganville,VU,81.98,-15.51,167.18,100,36,13.04
419,Waslala,NI,74.06,13.33,-85.37,64,44,6.44
421,Port Moresby,PG,87.8,-9.47,147.16,66,40,11.41
422,Rundu,NA,73.88,-17.91,19.77,46,0,3.65
423,Vesoul,FR,30.58,47.62,6.16,92,0,2.24
424,Anda,CN,38.15,46.41,125.33,33,0,11.14
425,Belmonte,PT,43,40.36,-7.35,48,0,8.01
426,Barlinek,PL,33.8,53,15.22,83,90,2.24
427,Tucupita,VE,76.58,9.06,-62.05,78,0,8.12
428,Mlimba,TZ,71.63,-8.78,35.81,97,92,3.31
429,Nobeoka,JP,62.01,32.66,131.66,48,0,14
430,Hofn,IS,40.94,64.25,-15.21,99,80,27.81
431,Kaduqli,SD,79.1,11.01,29.72,20,0,11.81
432,Zhigansk,RU,12.05,66.77,123.37,55,0,6.33
433,Praia da Vitoria,PT,56.05,38.73,-27.07,82,40,15.5
434,Ishigaki,JP,75.2,24.34,124.16,69,20,9.17
435,Ilo,PE,57.5,-17.65,-71.34,96,20,2.75
436,Constitucion,MX,62.9,23.99,-104.67,54,44,0.63
437,Calabozo,VE,79.55,8.92,-67.43,53,0,12.93
438,Ingham,AU,79.91,-18.65,146.16,100,64,6.22
439,Guilin,CN,66.2,25.28,110.29,93,90,2.24
440,Gobabis,NA,67.22,-22.45,18.97,71,44,3.09
441,Ugoofaaru,MV,84.41,5.67,73,100,0,4.65
442,Bambui,CM,54.98,6.01,10.23,82,8,2.19
443,Yurga,RU,34.37,55.71,84.93,88,68,7.67
444,Victoria,BN,89.85,5.28,115.24,70,75,6.93
445,Igurubi,TZ,64.43,-4,33.71,100,76,4.76
446,Beringovskiy,RU,29.33,63.05,179.32,89,36,25.68
447,Ghatanji,IN,92.87,20.14,78.32,32,0,9.46
448,Vila,IT,42.46,45.18,8.4,64,0,6.93
449,General Roca,AR,57.2,-39.03,-67.58,54,0,4.7
450,Mahajanga,MG,86,-15.72,46.32,74,20,3.36
451,Izumo,JP,66.2,35.37,132.75,34,75,26.4
452,Batemans Bay,AU,66.61,-35.71,150.18,66,0,3
453,Great Yarmouth,GB,43.16,52.61,1.73,81,75,4.7
454,Carupano,VE,76.94,10.67,-63.26,86,0,11.36
455,Coquimbo,CL,55.4,-29.95,-71.34,93,90,3.36
456,Kahului,US,67.84,20.89,-156.47,82,1,18.34
457,Vysokogornyy,RU,18.08,50.1,139.13,48,76,6.67
458,Beisfjord,NO,32.95,68.38,17.6,93,75,18.34
459,Talaya,RU,41.77,55.79,84.89,38,0,6.71
460,Radhan,PK,88.46,27.18,67.95,60,36,4.43
461,Playa del Carmen,MX,71.82,20.63,-87.08,78,40,5.82
462,Luz,BR,68.93,-19.79,-45.68,87,80,3.42
463,Srednekolymsk,RU,6.65,67.46,153.71,70,80,11.92
464,Xique-Xique,BR,71.54,-10.82,-42.73,100,88,3.76
465,Dicabisagan,PH,78.47,17.08,122.42,93,24,6.67
466,Esna,RO,44.27,45.2,27.57,54,0,10.58
467,Cortez,US,43.97,37.35,-108.58,57,1,3.36
468,Toora-Khem,RU,32.66,52.47,96.11,40,0,3.53
469,Huntington,US,30.09,38.42,-82.45,92,1,3.36
470,Hearst,CA,29.96,49.69,-83.67,51,0,11.14
471,Cap Malheureux,MU,86.43,-19.98,57.61,74,40,8.05
472,Rota,ES,57.16,36.62,-6.36,47,0,3.36
473,Moba,CD,73.7,-7.04,29.77,91,64,5.21
474,Dawlatabad,AF,77.84,36.41,64.91,40,88,16.06
475,Nishihara,JP,67.33,35.74,139.53,68,40,21.92
476,Santiago de Cao,PE,68,-7.96,-79.24,88,75,6.93
477,Oda,JP,66.2,35.19,132.5,34,75,26.4
479,Dongying,CN,63.53,37.43,118.67,39,12,16.96
480,Barreirinha,BR,77.66,-2.8,-57.07,88,0,4.32
481,Noumea,NC,80.6,-22.28,166.46,69,75,9.17
482,Acapulco,MX,75.2,16.86,-99.88,73,5,2.24
485,Hamilton,CA,26.08,43.26,-79.87,73,75,5.82
486,Ballina,IE,46.35,54.11,-9.15,87,75,4.7
487,Prieska,ZA,58.58,-29.67,22.74,57,0,2.75
488,Mugur-Aksy,RU,21.23,50.38,90.44,72,0,2.75
489,Wajima,JP,57.2,37.4,136.9,50,75,24.16
491,Nikolskoye,RU,28.58,59.7,30.79,73,0,8.95
492,Great Bend,US,51.67,38.36,-98.78,66,1,21.92
493,Palana,RU,12.95,59.08,159.95,62,80,6.11
494,Isaka,CD,74.78,-2.81,17.72,88,20,2.98
495,Zhemtala,RU,32,43.28,43.66,68,90,2.24
496,Huaiyin,CN,77,33.59,119.02,73,92,6.44
497,Peremyshlyany,UA,32,49.67,24.56,85,75,15.66
498,Ajdabiya,LY,52.28,30.75,20.22,52,0,5.32
499,Priponesti,RO,37.15,46.08,27.43,74,40,9.17
500,Marsa Matruh,EG,53.81,31.35,27.25,83,0,10.02
501,Harper,US,56.26,30.3,-99.24,71,1,3.36
502,Pandoh,IN,69.8,31.67,77.06,46,75,2.24
504,Ketchikan,US,47.71,55.34,-131.65,87,90,6.11
505,Port Hedland,AU,89.6,-20.31,118.58,66,0,12.75
506,Guerrero Negro,MX,56.06,27.97,-114.04,99,76,6.67
507,Arman,RU,17.9,59.7,150.17,59,80,7.78
508,Swift Current,CA,42.8,50.29,-107.8,48,90,23.04
509,Tazovskiy,RU,33.38,67.47,78.7,97,48,19.64
510,Lumeje,AO,67.94,-11.56,20.78,94,64,4.65
511,Korem,ET,68.75,12.51,39.52,68,8,3.2
512,Whitehorse,CA,29.61,60.72,-135.06,55,20,3.36
513,Bosaso,SO,89.6,11.28,49.18,46,0,24.16
514,Novoagansk,RU,35.9,61.94,76.66,79,80,6.44
515,Sobolevo,RU,26.81,54.43,31.9,74,24,7.9
516,Aksu,KZ,44.6,52.04,76.93,65,40,8.95
517,Nome,US,55.92,30.04,-94.42,58,1,6.93
518,Lavrentiya,RU,32.66,65.58,-170.99,89,88,32.73
519,Yulara,AU,87.8,-25.24,130.99,12,0,11.41
520,Namestovo,SK,34.23,49.41,19.48,64,20,10.29
521,Iskateley,RU,22.13,67.68,53.15,87,0,13.27
522,Istanbul,TR,49.77,41.01,28.95,71,75,9.17
526,Bend,US,36.9,44.06,-121.32,90,20,8.05
527,Port Macquarie,AU,74.39,-31.43,152.91,53,92,10.29
528,Strathmiglo,GB,47.05,56.28,-3.26,87,75,4.7
529,Zhangjiakou,CN,49.13,40.77,114.88,59,0,10.02
530,Ilheus,BR,77,-14.79,-39.05,94,40,3.36
531,Laguna,MX,63.8,27.52,-110.01,63,44,1.74
532,Haines Junction,CA,18.08,60.75,-137.51,75,0,1.52
533,Chortomlyk,UA,42.11,47.62,34.14,93,0,6.67
534,Granadilla de Abona,ES,58.23,28.12,-16.58,82,20,8.05
536,Dubbo,AU,82.4,-32.25,148.6,34,0,13.87
537,Fereydun Kenar,IR,53.6,36.69,52.52,81,40,6.93
538,Avera,US,46.45,33.19,-82.53,87,1,5.82
540,Lubango,AO,67.58,-14.92,13.49,81,76,2.19
541,Kropotkin,RU,43,45.43,40.58,59,0,4.43
542,Kotturu,IN,87.02,14.82,76.23,53,24,4.43
543,Manuk Mangkaw,PH,83.06,4.8,119.85,100,64,4.21
544,Adre,TD,74.51,13.47,22.2,20,0,14.61
545,Muscat,OM,77,23.6,58.55,94,75,12.75
546,Batagay-Alyta,RU,12.77,67.8,130.41,71,0,4.21
547,Nakamura,JP,63.39,35.17,136.87,36,0,5.82
548,Washougal,US,43.95,45.58,-122.35,70,1,3.76
549,Loei,TH,86,17.49,101.72,62,75,10.29
550,Amahai,ID,85.13,-3.31,129,100,32,4.99
551,Shenjiamen,CN,57.14,29.96,122.3,95,88,13.49
552,Te Anau,NZ,50.03,-45.41,167.72,68,8,7.23
553,Chemal,RU,41.93,51.41,86,51,64,2.75
554,Iralaya,HN,80.18,15,-83.23,78,92,10.47
555,Stromness,CA,23.92,42.87,-79.55,73,75,5.82
556,Kirakira,SB,83.87,-10.46,161.92,100,36,7.67
557,Luderitz,NA,60.2,-26.65,15.16,87,24,9.13
558,Pimentel,BR,75.05,-3.7,-45.5,96,76,1.41
559,Aklavik,CA,33.8,68.22,-135.01,74,75,4.7
561,Ciudad Bolivar,VE,79.1,8.12,-63.55,50,0,14.16
562,Alghero,IT,48.92,40.56,8.32,71,20,16.11
563,Nauen,DE,42.93,52.61,12.88,93,75,6.93
564,Arouca,PT,54.63,40.93,-8.24,24,0,13.87
565,Goderich,CA,24.73,43.74,-81.71,73,24,5.44
569,Kavaratti,IN,83.78,10.57,72.64,100,0,6.33
570,Smithers,CA,35.6,54.78,-127.17,69,75,3.36
571,Obigarm,TJ,35.9,38.72,69.71,96,92,1.74
575,Severo-Yeniseyskiy,RU,34.55,60.37,93.04,56,12,4.21
576,Santa Cruz,US,55.63,36.97,-122.03,87,75,8.05
577,Kazachinskoye,RU,36.71,57.69,93.28,74,0,5.21
578,Kaabong,UG,73.34,3.51,34.14,67,88,3.53
581,Chizhou,CN,63.26,30.67,117.49,99,100,4.21
582,Lagoa,PT,57.9,37.14,-8.45,55,0,25.28
583,Ellisras,ZA,69.83,-23.67,27.74,75,92,14.27
585,Erenhot,CN,38.51,43.65,111.97,39,0,6.89
587,Adrar,DZ,64.4,27.87,-0.29,63,40,13.87
588,Parana,BR,77,-7.52,-72.89,94,90,4.54
589,Gurkovo,BG,44.06,42.98,23.69,56,0,9.17
590,Deputatskiy,RU,8.72,69.3,139.9,74,0,3.98
591,Mucuri,BR,77.75,-18.08,-39.55,89,44,8.23
592,Plouzane,FR,38.16,48.38,-4.62,93,0,4.7
593,Leningradskiy,RU,29.42,69.38,178.42,83,76,16.4
594,Namibe,AO,76.94,-15.19,12.15,100,56,6.22
595,Pangoa,PE,67.04,-12.12,-73,98,92,2.08
596,Eureka,US,49.57,40.8,-124.16,100,90,10.29
597,Salinopolis,BR,79.01,-0.61,-47.36,100,88,7.11
598,Eugene,US,42.28,44.05,-123.1,75,75,5.82
599,Hirado,JP,64.2,33.32,129.49,59,20,18.34
600,Codrington,AU,69.84,-28.95,153.24,94,90,5.82
601,Brae,GB,47.17,60.4,-1.35,100,90,14.99
602,Teguldet,RU,39.68,57.31,88.17,60,0,6.55
603,Muisne,EC,69.74,0.61,-80.02,96,44,2.3
604,Shintomi,JP,75.2,32.08,131.47,15,40,17.22
605,Labuhan,ID,87.56,-2.54,115.51,64,48,3.2
606,Ewa Beach,US,71.53,21.32,-158.01,68,90,4.7
607,Lipin Bor,RU,26.27,60.26,37.97,100,80,3.87
